{
"type": "FeatureCollection",
"name": "ttc_stops",
"crs": { "type": "name", "properties": { "name": "urn:ogc:def:crs:OGC:1.3:CRS84" } },
"features": [
{ "type": "Feature", "properties": { "LOCATION_N": "Avenue", "NAME": "Eglinton Crosstown LRT" }, "geometry": { "type": "Point", "coordinates": [ -79.408508607613186, 43.704604609222109 ] } },
{ "type": "Feature", "properties": { "LOCATION_N": "Forest Hill", "NAME": "Eglinton Crosstown LRT" }, "geometry": { "type": "Point", "coordinates": [ -79.42556477202649, 43.701022936670036 ] } },
{ "type": "Feature", "properties": { "LOCATION_N": "Leaside", "NAME": "Eglinton Crosstown LRT" }, "geometry": { "type": "Point", "coordinates": [ -79.377152159415672, 43.711045449919602 ] } },
{ "type": "Feature", "properties": { "LOCATION_N": "Sloane", "NAME": "Eglinton Crosstown LRT" }, "geometry": { "type": "Point", "coordinates": [ -79.313518150771486, 43.725969508416185 ] } },
{ "type": "Feature", "properties": { "LOCATION_N": "Birchmount", "NAME": "Eglinton Crosstown LRT" }, "geometry": { "type": "Point", "coordinates": [ -79.27791034361239, 43.730059300620155 ] } },
{ "type": "Feature", "properties": { "LOCATION_N": "Caledonia", "NAME": "Eglinton Crosstown LRT" }, "geometry": { "type": "Point", "coordinates": [ -79.464618409860407, 43.692164834926224 ] } },
{ "type": "Feature", "properties": { "LOCATION_N": "Chaplin", "NAME": "Eglinton Crosstown LRT" }, "geometry": { "type": "Point", "coordinates": [ -79.417375520785257, 43.702742994465446 ] } },
{ "type": "Feature", "properties": { "LOCATION_N": "Science Centre", "NAME": "Eglinton Crosstown LRT" }, "geometry": { "type": "Point", "coordinates": [ -79.33884614674507, 43.720508941763995 ] } },
{ "type": "Feature", "properties": { "LOCATION_N": "Fairbank", "NAME": "Eglinton Crosstown LRT" }, "geometry": { "type": "Point", "coordinates": [ -79.450241287462305, 43.695635350412587 ] } },
{ "type": "Feature", "properties": { "LOCATION_N": "Eglinton", "NAME": "Eglinton Crosstown LRT" }, "geometry": { "type": "Point", "coordinates": [ -79.398648245722057, 43.706673860217521 ] } },
{ "type": "Feature", "properties": { "LOCATION_N": "Cedarvale", "NAME": "Eglinton Crosstown LRT" }, "geometry": { "type": "Point", "coordinates": [ -79.435991383177878, 43.6988276567849 ] } },
{ "type": "Feature", "properties": { "LOCATION_N": "Aga Khan Park & Museum", "NAME": "Eglinton Crosstown LRT" }, "geometry": { "type": "Point", "coordinates": [ -79.333977510402832, 43.722021105424034 ] } },
{ "type": "Feature", "properties": { "LOCATION_N": "Ionview", "NAME": "Eglinton Crosstown LRT" }, "geometry": { "type": "Point", "coordinates": [ -79.271196547498491, 43.731427010172006 ] } },
{ "type": "Feature", "properties": { "LOCATION_N": "Keelesdale", "NAME": "Eglinton Crosstown LRT" }, "geometry": { "type": "Point", "coordinates": [ -79.475066197747111, 43.690154906777956 ] } },
{ "type": "Feature", "properties": { "LOCATION_N": "Kennedy", "NAME": "Eglinton Crosstown LRT" }, "geometry": { "type": "Point", "coordinates": [ -79.264529161195142, 43.732257500050572 ] } },
{ "type": "Feature", "properties": { "LOCATION_N": "Laird", "NAME": "Eglinton Crosstown LRT" }, "geometry": { "type": "Point", "coordinates": [ -79.364807320311911, 43.713571255287171 ] } },
{ "type": "Feature", "properties": { "LOCATION_N": "Hakimi Lebovic", "NAME": "Eglinton Crosstown LRT" }, "geometry": { "type": "Point", "coordinates": [ -79.29148533196485, 43.727062849423554 ] } },
{ "type": "Feature", "properties": { "LOCATION_N": "Sunnybrook Park", "NAME": "Eglinton Crosstown LRT" }, "geometry": { "type": "Point", "coordinates": [ -79.349959422489448, 43.71705617204136 ] } },
{ "type": "Feature", "properties": { "LOCATION_N": "Mount Dennis", "NAME": "Eglinton Crosstown LRT" }, "geometry": { "type": "Point", "coordinates": [ -79.487260492812368, 43.68737743523419 ] } },
{ "type": "Feature", "properties": { "LOCATION_N": "Mount Pleasant", "NAME": "Eglinton Crosstown LRT" }, "geometry": { "type": "Point", "coordinates": [ -79.390179152610571, 43.708398076872598 ] } },
{ "type": "Feature", "properties": { "LOCATION_N": "Oakwood", "NAME": "Eglinton Crosstown LRT" }, "geometry": { "type": "Point", "coordinates": [ -79.442791335945586, 43.697306116851856 ] } },
{ "type": "Feature", "properties": { "LOCATION_N": "Pharmacy", "NAME": "Eglinton Crosstown LRT" }, "geometry": { "type": "Point", "coordinates": [ -79.297546553178634, 43.725715706497077 ] } },
{ "type": "Feature", "properties": { "LOCATION_N": "O'Connor", "NAME": "Eglinton Crosstown LRT" }, "geometry": { "type": "Point", "coordinates": [ -79.302581651418464, 43.724651409322789 ] } },
{ "type": "Feature", "properties": { "LOCATION_N": "Golden Mile", "NAME": "Eglinton Crosstown LRT" }, "geometry": { "type": "Point", "coordinates": [ -79.287638151958859, 43.727928807219307 ] } },
{ "type": "Feature", "properties": { "LOCATION_N": "Wynford", "NAME": "Eglinton Crosstown LRT" }, "geometry": { "type": "Point", "coordinates": [ -79.325282055525861, 43.724376667331398 ] } },
{ "type": "Feature", "properties": { "LOCATION_N": "Kipling", "NAME": "Bloor-Danforth Subway" }, "geometry": { "type": "Point", "coordinates": [ -79.536276682646957, 43.63693526566496 ] } },
{ "type": "Feature", "properties": { "LOCATION_N": "Islington", "NAME": "Bloor-Danforth Subway" }, "geometry": { "type": "Point", "coordinates": [ -79.52459416770003, 43.645324703142585 ] } },
{ "type": "Feature", "properties": { "LOCATION_N": "Royal York", "NAME": "Bloor-Danforth Subway" }, "geometry": { "type": "Point", "coordinates": [ -79.511286219260967, 43.648114280972784 ] } },
{ "type": "Feature", "properties": { "LOCATION_N": "Old Mill", "NAME": "Bloor-Danforth Subway" }, "geometry": { "type": "Point", "coordinates": [ -79.495090526192186, 43.650074619329317 ] } },
{ "type": "Feature", "properties": { "LOCATION_N": "Jane", "NAME": "Bloor-Danforth Subway" }, "geometry": { "type": "Point", "coordinates": [ -79.484459593510849, 43.649787247808028 ] } },
{ "type": "Feature", "properties": { "LOCATION_N": "Runnymede", "NAME": "Bloor-Danforth Subway" }, "geometry": { "type": "Point", "coordinates": [ -79.476204260578342, 43.651655074347076 ] } },
{ "type": "Feature", "properties": { "LOCATION_N": "High Park", "NAME": "Bloor-Danforth Subway" }, "geometry": { "type": "Point", "coordinates": [ -79.4662210533711, 43.654050121366886 ] } },
{ "type": "Feature", "properties": { "LOCATION_N": "Keele", "NAME": "Bloor-Danforth Subway" }, "geometry": { "type": "Point", "coordinates": [ -79.459850952112134, 43.655466702017705 ] } },
{ "type": "Feature", "properties": { "LOCATION_N": "Dundas West", "NAME": "Bloor-Danforth Subway" }, "geometry": { "type": "Point", "coordinates": [ -79.452408680699392, 43.657172286282744 ] } },
{ "type": "Feature", "properties": { "LOCATION_N": "Lansdowne", "NAME": "Bloor-Danforth Subway" }, "geometry": { "type": "Point", "coordinates": [ -79.442620623672369, 43.659118056912561 ] } },
{ "type": "Feature", "properties": { "LOCATION_N": "Dufferin", "NAME": "Bloor-Danforth Subway" }, "geometry": { "type": "Point", "coordinates": [ -79.435486411090423, 43.660242641379867 ] } },
{ "type": "Feature", "properties": { "LOCATION_N": "Ossington", "NAME": "Bloor-Danforth Subway" }, "geometry": { "type": "Point", "coordinates": [ -79.425935248975961, 43.662416313248762 ] } },
{ "type": "Feature", "properties": { "LOCATION_N": "Christie", "NAME": "Bloor-Danforth Subway" }, "geometry": { "type": "Point", "coordinates": [ -79.418343261236231, 43.664069176542704 ] } },
{ "type": "Feature", "properties": { "LOCATION_N": "Bathurst", "NAME": "Bloor-Danforth Subway" }, "geometry": { "type": "Point", "coordinates": [ -79.411487264743783, 43.665716657052236 ] } },
{ "type": "Feature", "properties": { "LOCATION_N": "St. George", "NAME": "Yonge-University Subway" }, "geometry": { "type": "Point", "coordinates": [ -79.399304619409051, 43.668274963362165 ] } },
{ "type": "Feature", "properties": { "LOCATION_N": "Bay", "NAME": "Bloor-Danforth Subway" }, "geometry": { "type": "Point", "coordinates": [ -79.389865841033924, 43.670206485281241 ] } },
{ "type": "Feature", "properties": { "LOCATION_N": "Bloor-Yonge", "NAME": "Yonge-University Subway" }, "geometry": { "type": "Point", "coordinates": [ -79.385718104704694, 43.670995352610817 ] } },
{ "type": "Feature", "properties": { "LOCATION_N": "Sherbourne", "NAME": "Bloor-Danforth Subway" }, "geometry": { "type": "Point", "coordinates": [ -79.376843751164429, 43.672353907492045 ] } },
{ "type": "Feature", "properties": { "LOCATION_N": "Castle Frank", "NAME": "Bloor-Danforth Subway" }, "geometry": { "type": "Point", "coordinates": [ -79.368494227822964, 43.673858492017835 ] } },
{ "type": "Feature", "properties": { "LOCATION_N": "Broadview", "NAME": "Bloor-Danforth Subway" }, "geometry": { "type": "Point", "coordinates": [ -79.358784387853547, 43.676829924371781 ] } },
{ "type": "Feature", "properties": { "LOCATION_N": "Chester", "NAME": "Bloor-Danforth Subway" }, "geometry": { "type": "Point", "coordinates": [ -79.352254903718503, 43.678341388211386 ] } },
{ "type": "Feature", "properties": { "LOCATION_N": "Pape", "NAME": "Bloor-Danforth Subway" }, "geometry": { "type": "Point", "coordinates": [ -79.345173978765459, 43.679732405365513 ] } },
{ "type": "Feature", "properties": { "LOCATION_N": "Donlands", "NAME": "Bloor-Danforth Subway" }, "geometry": { "type": "Point", "coordinates": [ -79.337779724218237, 43.681175801838393 ] } },
{ "type": "Feature", "properties": { "LOCATION_N": "Greenwood", "NAME": "Bloor-Danforth Subway" }, "geometry": { "type": "Point", "coordinates": [ -79.33028189951284, 43.682802251959529 ] } },
{ "type": "Feature", "properties": { "LOCATION_N": "Coxwell", "NAME": "Bloor-Danforth Subway" }, "geometry": { "type": "Point", "coordinates": [ -79.323097170518366, 43.684324119356312 ] } },
{ "type": "Feature", "properties": { "LOCATION_N": "Woodbine", "NAME": "Bloor-Danforth Subway" }, "geometry": { "type": "Point", "coordinates": [ -79.312985318839722, 43.686541345639924 ] } },
{ "type": "Feature", "properties": { "LOCATION_N": "Main Street", "NAME": "Bloor-Danforth Subway" }, "geometry": { "type": "Point", "coordinates": [ -79.302012625783689, 43.688973693317926 ] } },
{ "type": "Feature", "properties": { "LOCATION_N": "Victoria Park", "NAME": "Bloor-Danforth Subway" }, "geometry": { "type": "Point", "coordinates": [ -79.289446830165716, 43.694612892964216 ] } },
{ "type": "Feature", "properties": { "LOCATION_N": "Warden", "NAME": "Bloor-Danforth Subway" }, "geometry": { "type": "Point", "coordinates": [ -79.279201767263714, 43.711178152769904 ] } },
{ "type": "Feature", "properties": { "LOCATION_N": "Kennedy", "NAME": "Bloor-Danforth Subway" }, "geometry": { "type": "Point", "coordinates": [ -79.264529161195142, 43.732257500050572 ] } },
{ "type": "Feature", "properties": { "LOCATION_N": "Union", "NAME": "Yonge-University Subway" }, "geometry": { "type": "Point", "coordinates": [ -79.379132328259004, 43.646013320346555 ] } },
{ "type": "Feature", "properties": { "LOCATION_N": "St. Andrew", "NAME": "Yonge-University Subway" }, "geometry": { "type": "Point", "coordinates": [ -79.384792412573063, 43.64765378485977 ] } },
{ "type": "Feature", "properties": { "LOCATION_N": "King", "NAME": "Yonge-University Subway" }, "geometry": { "type": "Point", "coordinates": [ -79.377904373804085, 43.649140770088351 ] } },
{ "type": "Feature", "properties": { "LOCATION_N": "Osgoode", "NAME": "Yonge-University Subway" }, "geometry": { "type": "Point", "coordinates": [ -79.386615421388896, 43.650847745341103 ] } },
{ "type": "Feature", "properties": { "LOCATION_N": "Queen", "NAME": "Yonge-University Subway" }, "geometry": { "type": "Point", "coordinates": [ -79.379253402130743, 43.65243065800437 ] } },
{ "type": "Feature", "properties": { "LOCATION_N": "St. Patrick", "NAME": "Yonge-University Subway" }, "geometry": { "type": "Point", "coordinates": [ -79.388302533261808, 43.65478531786308 ] } },
{ "type": "Feature", "properties": { "LOCATION_N": "Dundas", "NAME": "Yonge-University Subway" }, "geometry": { "type": "Point", "coordinates": [ -79.380911316377748, 43.656318818198308 ] } },
{ "type": "Feature", "properties": { "LOCATION_N": "Queen's Park", "NAME": "Yonge-University Subway" }, "geometry": { "type": "Point", "coordinates": [ -79.390462980683253, 43.659849415465395 ] } },
{ "type": "Feature", "properties": { "LOCATION_N": "College", "NAME": "Yonge-University Subway" }, "geometry": { "type": "Point", "coordinates": [ -79.383139297962529, 43.661444812030872 ] } },
{ "type": "Feature", "properties": { "LOCATION_N": "Wellesley", "NAME": "Yonge-University Subway" }, "geometry": { "type": "Point", "coordinates": [ -79.383524322849993, 43.665259844119582 ] } },
{ "type": "Feature", "properties": { "LOCATION_N": "Museum", "NAME": "Yonge-University Subway" }, "geometry": { "type": "Point", "coordinates": [ -79.39356310676807, 43.667360405524271 ] } },
{ "type": "Feature", "properties": { "LOCATION_N": "Rosedale", "NAME": "Yonge-University Subway" }, "geometry": { "type": "Point", "coordinates": [ -79.388521114740044, 43.677087314861247 ] } },
{ "type": "Feature", "properties": { "LOCATION_N": "Summerhill", "NAME": "Yonge-University Subway" }, "geometry": { "type": "Point", "coordinates": [ -79.391242751555552, 43.683334031647064 ] } },
{ "type": "Feature", "properties": { "LOCATION_N": "St. Clair", "NAME": "Yonge-University Subway" }, "geometry": { "type": "Point", "coordinates": [ -79.393397705023233, 43.688293995464022 ] } },
{ "type": "Feature", "properties": { "LOCATION_N": "Davisville", "NAME": "Yonge-University Subway" }, "geometry": { "type": "Point", "coordinates": [ -79.39726415365763, 43.697977928736123 ] } },
{ "type": "Feature", "properties": { "LOCATION_N": "Eglinton", "NAME": "Yonge-University Subway" }, "geometry": { "type": "Point", "coordinates": [ -79.398434925584482, 43.706718287476427 ] } },
{ "type": "Feature", "properties": { "LOCATION_N": "Lawrence", "NAME": "Yonge-University Subway" }, "geometry": { "type": "Point", "coordinates": [ -79.402175082380339, 43.724948791192233 ] } },
{ "type": "Feature", "properties": { "LOCATION_N": "York Mills", "NAME": "Yonge-University Subway" }, "geometry": { "type": "Point", "coordinates": [ -79.406198062140533, 43.744262872345651 ] } },
{ "type": "Feature", "properties": { "LOCATION_N": "Sheppard-Yonge", "NAME": "Yonge-University Subway" }, "geometry": { "type": "Point", "coordinates": [ -79.410920651566073, 43.761513206505853 ] } },
{ "type": "Feature", "properties": { "LOCATION_N": "North York Centre", "NAME": "Yonge-University Subway" }, "geometry": { "type": "Point", "coordinates": [ -79.412772325656206, 43.768831500718456 ] } },
{ "type": "Feature", "properties": { "LOCATION_N": "Finch", "NAME": "Yonge-University Subway" }, "geometry": { "type": "Point", "coordinates": [ -79.415566953108922, 43.779762008239075 ] } },
{ "type": "Feature", "properties": { "LOCATION_N": "Spadina", "NAME": "Yonge-University Subway" }, "geometry": { "type": "Point", "coordinates": [ -79.404759196883504, 43.66895355696991 ] } },
{ "type": "Feature", "properties": { "LOCATION_N": "Dupont", "NAME": "Yonge-University Subway" }, "geometry": { "type": "Point", "coordinates": [ -79.407107260495266, 43.674847808056178 ] } },
{ "type": "Feature", "properties": { "LOCATION_N": "St Clair West", "NAME": "Yonge-University Subway" }, "geometry": { "type": "Point", "coordinates": [ -79.415335640454458, 43.683815277731185 ] } },
{ "type": "Feature", "properties": { "LOCATION_N": "Eglinton West", "NAME": "Yonge-University Subway" }, "geometry": { "type": "Point", "coordinates": [ -79.435991383177878, 43.6988276567849 ] } },
{ "type": "Feature", "properties": { "LOCATION_N": "Glencairn", "NAME": "Yonge-University Subway" }, "geometry": { "type": "Point", "coordinates": [ -79.441179170702128, 43.709531941431578 ] } },
{ "type": "Feature", "properties": { "LOCATION_N": "Lawrence West", "NAME": "Yonge-University Subway" }, "geometry": { "type": "Point", "coordinates": [ -79.444186175453638, 43.716056018766082 ] } },
{ "type": "Feature", "properties": { "LOCATION_N": "Yorkdale", "NAME": "Yonge-University Subway" }, "geometry": { "type": "Point", "coordinates": [ -79.447865229458259, 43.725607064863809 ] } },
{ "type": "Feature", "properties": { "LOCATION_N": "Wilson", "NAME": "Yonge-University Subway" }, "geometry": { "type": "Point", "coordinates": [ -79.44991771900149, 43.734084586511443 ] } },
{ "type": "Feature", "properties": { "LOCATION_N": "Sheppard West", "NAME": "Yonge-University Subway" }, "geometry": { "type": "Point", "coordinates": [ -79.462472197058418, 43.750429854331671 ] } },
{ "type": "Feature", "properties": { "LOCATION_N": "Bayview", "NAME": "Sheppard Subway" }, "geometry": { "type": "Point", "coordinates": [ -79.387752498120392, 43.766654843126581 ] } },
{ "type": "Feature", "properties": { "LOCATION_N": "Bessarion", "NAME": "Sheppard Subway" }, "geometry": { "type": "Point", "coordinates": [ -79.376649128668092, 43.769185206011258 ] } },
{ "type": "Feature", "properties": { "LOCATION_N": "Leslie", "NAME": "Sheppard Subway" }, "geometry": { "type": "Point", "coordinates": [ -79.367041170586447, 43.771135661219361 ] } },
{ "type": "Feature", "properties": { "LOCATION_N": "Don Mills", "NAME": "Sheppard Subway" }, "geometry": { "type": "Point", "coordinates": [ -79.346972769575359, 43.77513502107869 ] } },
{ "type": "Feature", "properties": { "LOCATION_N": "Kennedy", "NAME": "Scarborough RT" }, "geometry": { "type": "Point", "coordinates": [ -79.264529161195142, 43.732257500050572 ] } },
{ "type": "Feature", "properties": { "LOCATION_N": "Lawrence East", "NAME": "Scarborough RT" }, "geometry": { "type": "Point", "coordinates": [ -79.270043683648439, 43.750494265208381 ] } },
{ "type": "Feature", "properties": { "LOCATION_N": "Ellesmere", "NAME": "Scarborough RT" }, "geometry": { "type": "Point", "coordinates": [ -79.276138929350552, 43.766866101360108 ] } },
{ "type": "Feature", "properties": { "LOCATION_N": "Midland", "NAME": "Scarborough RT" }, "geometry": { "type": "Point", "coordinates": [ -79.271983994262058, 43.77044646221821 ] } },
{ "type": "Feature", "properties": { "LOCATION_N": "Scarborough Town Centre", "NAME": "Scarborough RT" }, "geometry": { "type": "Point", "coordinates": [ -79.257852087528818, 43.774443657181664 ] } },
{ "type": "Feature", "properties": { "LOCATION_N": "McCowan", "NAME": "Scarborough RT" }, "geometry": { "type": "Point", "coordinates": [ -79.251600040650104, 43.774902958839419 ] } },
{ "type": "Feature", "properties": { "LOCATION_N": "Sheppard West", "NAME": "Toronto-York Spadina Subway Extension" }, "geometry": { "type": "Point", "coordinates": [ -79.462472197058418, 43.750429854331671 ] } },
{ "type": "Feature", "properties": { "LOCATION_N": "Downsview Park", "NAME": "Toronto-York Spadina Subway Extension" }, "geometry": { "type": "Point", "coordinates": [ -79.478330620278456, 43.753597916317212 ] } },
{ "type": "Feature", "properties": { "LOCATION_N": "Finch West", "NAME": "Toronto-York Spadina Subway Extension" }, "geometry": { "type": "Point", "coordinates": [ -79.490983504689027, 43.763481899214099 ] } },
{ "type": "Feature", "properties": { "LOCATION_N": "York University", "NAME": "Toronto-York Spadina Subway Extension" }, "geometry": { "type": "Point", "coordinates": [ -79.499641446546775, 43.774120097466593 ] } },
{ "type": "Feature", "properties": { "LOCATION_N": "Pioneer Village", "NAME": "Toronto-York Spadina Subway Extension" }, "geometry": { "type": "Point", "coordinates": [ -79.511632021953417, 43.777513928396274 ] } },
{ "type": "Feature", "properties": { "LOCATION_N": "Highway 407", "NAME": "Toronto-York Spadina Subway Extension" }, "geometry": { "type": "Point", "coordinates": [ -79.523233438710108, 43.783547564180601 ] } },
{ "type": "Feature", "properties": { "LOCATION_N": "Vaughan Metropolitan Centre", "NAME": "Toronto-York Spadina Subway Extension" }, "geometry": { "type": "Point", "coordinates": [ -79.527270349672975, 43.793505226187207 ] } },
{ "type": "Feature", "properties": { "LOCATION_N": "Sheppard-Yonge", "NAME": "Sheppard Subway" }, "geometry": { "type": "Point", "coordinates": [ -79.410920651566073, 43.761513206505853 ] } },
{ "type": "Feature", "properties": { "LOCATION_N": "Spadina", "NAME": "Bloor-Danforth Subway" }, "geometry": { "type": "Point", "coordinates": [ -79.403969816718728, 43.66728038684284 ] } },
{ "type": "Feature", "properties": { "LOCATION_N": "St. George", "NAME": "Bloor-Danforth Subway" }, "geometry": { "type": "Point", "coordinates": [ -79.399304619409051, 43.668274963362165 ] } },
{ "type": "Feature", "properties": { "LOCATION_N": "Bloor-Yonge", "NAME": "Bloor-Danforth Subway" }, "geometry": { "type": "Point", "coordinates": [ -79.385718104704694, 43.670995352610817 ] } }
]
}
